{
  "timestamp": "2025-07-24T11:53:13.140579",
  "query": "hi",
  "latitude": 13.0067,
  "longitude": 80.257,
  "results": [
    {
      "fsq_id": "5c54608c898bdc002cf12fab",
      "categories": [
        {
          "id": 13065,
          "name": "Restaurant",
          "short_name": "Restaurant",
          "plural_name": "Restaurants",
          "icon": {
            "prefix": "https://ss3.4sqi.net/img/categories_v2/food/default_",
            "suffix": ".png"
          }
        }
      ],
      "chains": [],
      "closed_bucket": "LikelyOpen",
      "distance": 294,
      "geocodes": {
        "main": {
          "latitude": 13.007122,
          "longitude": 80.259631
        },
        "roof": {
          "latitude": 13.007122,
          "longitude": 80.259631
        }
      },
      "link": "/v3/places/5c54608c898bdc002cf12fab",
      "location": {
        "address": "No 1, Royal Enclave, Besant Avenue Road, Theosophical Society",
        "country": "IN",
        "cross_street": "",
        "formatted_address": "No 1, Royal Enclave, Besant Avenue Road, Theosophical Society, Chennai 600020, Tamil Nadu",
        "locality": "Chennai",
        "postcode": "600020",
        "region": "Tamil Nadu"
      },
      "name": "Hix Restaurant and Bar",
      "related_places": {},
      "timezone": "Asia/Kolkata"
    },
    {
      "fsq_id": "54f531fc498e300bbb90b501",
      "categories": [
        {
          "id": 15031,
          "name": "Doctor's Office",
          "short_name": "Doctor's Office",
          "plural_name": "Doctor's Offices",
          "icon": {
            "prefix": "https://ss3.4sqi.net/img/categories_v2/building/medical_doctorsoffice_",
            "suffix": ".png"
          }
        }
      ],
      "chains": [],
      "closed_bucket": "LikelyOpen",
      "distance": 343,
      "geocodes": {
        "drop_off": {
          "latitude": 13.009288,
          "longitude": 80.258643
        },
        "main": {
          "latitude": 13.009435,
          "longitude": 80.258654
        }
      },
      "link": "/v3/places/54f531fc498e300bbb90b501",
      "location": {
        "address": "First Main Road",
        "country": "IN",
        "cross_street": "",
        "formatted_address": "First Main Road, Chennai 600020, Tamil Nadu",
        "locality": "Chennai",
        "postcode": "600020",
        "region": "Tamil Nadu"
      },
      "name": "Dr.Tahir Ahmed - Knee.Hip.Spine Orthopaedic Clinic",
      "related_places": {},
      "timezone": "Asia/Kolkata"
    },
    {
      "fsq_id": "aa1e8e7e73bd4607dda84619",
      "categories": [
        {
          "id": 11148,
          "name": "Property Management Office",
          "short_name": "Property Management Office",
          "plural_name": "Property Management Offices",
          "icon": {
            "prefix": "https://ss3.4sqi.net/img/categories_v2/building/default_",
            "suffix": ".png"
          }
        }
      ],
      "chains": [],
      "closed_bucket": "LikelyOpen",
      "distance": 369,
      "geocodes": {
        "main": {
          "latitude": 13.003374,
          "longitude": 80.257046
        },
        "roof": {
          "latitude": 13.003374,
          "longitude": 80.257046
        }
      },
      "link": "/v3/places/aa1e8e7e73bd4607dda84619",
      "location": {
        "address": "No 15, Lb Road",
        "country": "IN",
        "formatted_address": "No 15, Lb Road, Chennai 600020, Tamil Nadu",
        "locality": "Chennai",
        "postcode": "600020",
        "region": "Tamil Nadu"
      },
      "name": "Vision Hire Entertainment",
      "related_places": {},
      "timezone": "Asia/Kolkata"
    },
    {
      "fsq_id": "b992401862d34d7b1101a22f",
      "categories": [
        {
          "id": 12057,
          "name": "Primary and Secondary School",
          "short_name": "Primary and Secondary School",
          "plural_name": "Primary and Secondary Schools",
          "icon": {
            "prefix": "https://ss3.4sqi.net/img/categories_v2/education/default_",
            "suffix": ".png"
          }
        }
      ],
      "chains": [],
      "closed_bucket": "LikelyOpen",
      "distance": 466,
      "geocodes": {
        "main": {
          "latitude": 13.009368,
          "longitude": 80.253676
        },
        "roof": {
          "latitude": 13.009368,
          "longitude": 80.253676
        }
      },
      "link": "/v3/places/b992401862d34d7b1101a22f",
      "location": {
        "address": "75 4th Main Road",
        "country": "IN",
        "formatted_address": "75 4th Main Road, Chennai 600020, Tamil Nadu",
        "locality": "Chennai",
        "postcode": "600020",
        "region": "Tamil Nadu"
      },
      "name": "Rani Meyyammai High School",
      "related_places": {},
      "timezone": "Asia/Kolkata"
    },
    {
      "fsq_id": "f7850b1d74044f8412786e88",
      "categories": [
        {
          "id": 12059,
          "name": "High School",
          "short_name": "High School",
          "plural_name": "High Schools",
          "icon": {
            "prefix": "https://ss3.4sqi.net/img/categories_v2/building/school_",
            "suffix": ".png"
          }
        }
      ],
      "chains": [],
      "closed_bucket": "LikelyOpen",
      "distance": 537,
      "geocodes": {
        "drop_off": {
          "latitude": 13.003678,
          "longitude": 80.253466
        },
        "main": {
          "latitude": 13.003288,
          "longitude": 80.253482
        },
        "roof": {
          "latitude": 13.003288,
          "longitude": 80.253482
        }
      },
      "link": "/v3/places/f7850b1d74044f8412786e88",
      "location": {
        "address": "2nd Street",
        "country": "IN",
        "formatted_address": "2nd Street, Chennai 600080, Tamil Nadu",
        "locality": "Chennai",
        "postcode": "600080",
        "region": "Tamil Nadu"
      },
      "name": "Little Holy Angels Matriculation Higher Secondary School",
      "related_places": {},
      "timezone": "Asia/Kolkata"
    }
  ]
}